,City ID,City,Country,Lat,Lon,Date (UTC),Clouds (%),Humidity (%),Max Temp (F),Wind Speed (mph)
0,3948642,Abancay,PE,-13.63,-72.88,1600360690,62,37,70.18,17.4704724249
1,584365,Abrau-Dyurso,RU,44.69,37.59,1600360690,0,52,75.0,9.9991052163
2,172515,Abu Samrah,SY,35.3,37.18,1600360690,0,38,78.87,23.1075518757
3,3408368,Acaraú,BR,-2.89,-40.12,1600360690,0,52,87.08,50.331066525000004
4,2194098,Ahipara,NZ,-35.17,173.17,1600360690,98,78,57.43,27.2682533751
5,1651810,Airai,TL,-8.93,125.41,1600360691,65,99,58.21,2.5501073705999997
6,5882953,Aklavik,CA,68.22,-135.01,1600360691,75,100,39.2,13.018969207800001
7,1529660,Aksu,CN,41.12,80.26,1600360691,0,23,70.77,6.8002863216
8,5106841,Albany,US,42.6,-73.97,1600360691,78,66,72.0,4.2949176768
9,3130606,Alcañiz,ES,41.05,-0.13,1600360691,98,58,79.0,11.2070508129
10,582816,Alekseyevskaya,RU,50.29,42.18,1600360692,64,36,62.01,6.71080887
11,2077895,Alice Springs,AU,-23.7,133.88,1600360692,50,64,75.0,7.5161059344
12,2271968,Aljezur,PT,37.32,-8.8,1600360692,42,72,73.0,13.399248377100001
13,4036284,Alofi,NU,-19.06,-169.92,1600360631,92,100,71.6,36.0370436319
14,6316343,Alta Floresta,BR,-9.88,-56.09,1600360692,46,28,96.8,7.5161059344
15,3407882,Altamira,BR,-3.2,-52.21,1600360505,75,63,91.4,18.007337134500002
16,1529651,Altay,CN,47.87,88.12,1600360693,51,31,61.39,14.3611309818
17,1511709,Alzamay,RU,55.56,98.66,1600360693,36,94,50.05,11.408375078999999
18,3407762,Amapá,BR,1.0,-52.0,1600360693,8,34,95.86,10.1556907566
19,1081790,Amboasary,MG,-25.03,46.38,1600360693,0,73,73.4,36.0370436319
20,1651531,Ambon City,ID,-3.7,128.18,1600360693,57,83,78.75,13.1531853852
21,2127202,Anadyr,RU,64.75,177.48,1600360694,40,86,41.0,20.020579795499998
22,3899695,Ancud,CL,-41.87,-73.82,1600360694,100,66,54.0,13.399248377100001
23,5516288,Andrews,US,32.32,-102.55,1600360694,40,53,75.2,7.5161059344
24,1052944,Angoche,MZ,-16.23,39.91,1600360694,52,79,76.01,30.2657480037
25,581568,Ansalta,RU,42.69,46.12,1600360694,0,69,57.85,9.1043307003
26,3899539,Antofagasta,CL,-23.65,-70.4,1600360483,40,67,59.0,23.0180744241
27,6621469,Arrondissement d'Arcachon,FR,44.59,-1.05,1600360695,15,23,93.2,20.5127057793
28,3407194,Areia Branca,BR,-4.96,-37.14,1600360568,20,29,98.6,18.007337134500002
29,2127060,Arman',RU,59.7,150.17,1600360695,0,70,40.62,19.2152827311
30,1511381,Aromashevo,RU,56.86,68.64,1600360695,92,94,47.01,16.0612025622
31,2521582,Arona,ES,28.1,-16.68,1600360695,75,73,77.0,28.5209376975
32,3471451,Arraial do Cabo,BR,-22.97,-42.03,1600360696,1,55,89.6,33.531674987100004
33,686090,Asău,RO,46.43,26.4,1600360696,61,36,79.0,7.5161059344
34,359783,Assiut,EG,27.18,31.18,1600360696,0,31,102.2,20.5127057793
35,1651103,Atambua,ID,-9.11,124.89,1600360696,54,90,70.59,5.100214741199999
36,2381334,Atar,MR,20.52,-13.05,1600360696,0,8,109.35,39.1240157121
37,4020109,Atuona,PF,-9.8,-139.03,1600360697,41,78,77.65,49.79420181540001
38,4035715,Avarua,CK,-21.21,-159.78,1600360488,70,73,69.8,18.007337134500002
39,4231997,Avera,US,33.19,-82.53,1600360697,90,83,82.4,25.5234430689
40,2219235,Ubari,LY,26.59,12.78,1600360697,0,26,89.91,22.4141016258
41,2303611,Esim,GH,4.87,-2.24,1600360698,30,81,77.07,25.5234430689
42,2027296,Aykhal,RU,66.0,111.5,1600360698,45,66,48.2,15.0098425059
43,98182,Baghdad,IQ,33.34,44.4,1600360698,0,20,98.6,7.5161059344
44,5889745,Baie-Comeau,CA,49.22,-68.15,1600360519,20,39,50.0,38.5200429138
45,5816320,Bainbridge Island,US,47.63,-122.52,1600360698,90,88,64.99,6.5542233297
46,7601762,Bairiki Village,KI,1.33,172.98,1600360698,40,69,82.4,23.0180744241
47,141736,Bam,IR,29.11,58.36,1600360699,0,18,75.42,28.073550439500004
48,1106677,Bambous Virieux,MU,-20.34,57.76,1600360699,75,68,72.0,31.0263063423
49,1215502,Banda Aceh,ID,5.56,95.32,1600360699,85,75,81.03,30.0644237376
50,1215498,Bandar,ID,2.05,99.75,1600360699,99,92,73.99,6.3976377894
51,141665,Bandar-e Lengeh,IR,26.56,54.88,1600360699,0,59,89.6,10.513600563
52,64814,Bandarbeyla,SO,9.49,50.81,1600360700,4,82,76.87,75.2057980698
53,3512067,Baní,DO,18.28,-70.33,1600360516,20,62,91.99,10.513600563
54,5880054,Barrow,US,71.29,-156.79,1600360700,90,86,41.0,13.018969207800001
55,725905,Basarabi,RO,44.01,23.01,1600360700,0,27,77.58,14.5624552479
56,1183224,Basirpur,PK,30.58,73.83,1600360700,14,34,90.21,1.6553328546000001
57,3374083,Bathsheba,BB,13.22,-59.52,1600360700,40,55,89.6,36.0370436319
58,342641,Batī,ET,11.18,40.02,1600360701,67,53,72.91,21.7206513759
59,780717,Båtsfjord,NO,70.63,29.72,1600360701,40,70,44.6,23.0180744241
60,3511626,Bayaguana,DO,18.76,-69.64,1600360701,20,70,91.99,18.007337134500002
61,2027002,Bayangol,RU,50.7,103.47,1600360701,2,73,39.43,5.5476019992
62,1510689,Baykit,RU,61.67,96.37,1600360702,100,81,52.07,11.7662848854
63,5896969,Beaverlodge,CA,55.22,-119.44,1600360702,40,81,48.2,5.010737289600001
64,1734439,Bedong,MY,5.73,100.51,1600360702,20,94,78.8,0.2908017177
65,4673258,Beeville,US,28.4,-97.75,1600360702,1,74,87.01,13.018969207800001
66,2126785,Belaya Gora,RU,68.53,146.42,1600360702,99,83,43.72,22.816750157999998
67,3470137,Belmonte,BR,-15.86,-38.88,1600360702,20,61,80.6,23.0180744241
68,1067565,Beloha,MG,-25.17,45.05,1600360703,0,78,70.14,20.557444505099998
69,5245387,Beloit,US,42.51,-89.03,1600360703,40,59,66.2,20.5127057793
70,88319,Benghazi,LY,32.12,20.07,1600360703,0,75,78.93,23.912848940099998
71,1649150,Bengkulu,ID,-3.8,102.27,1600360703,13,89,75.42,9.2609162406
72,3351663,Benguela,AO,-12.58,13.41,1600360703,20,78,73.4,10.513600563
73,3128273,Benicarló,ES,40.42,0.43,1600360704,95,72,79.0,17.9178596829
74,3105522,Bereda,ES,43.27,-7.54,1600360704,49,60,77.0,17.9178596829
75,2126710,Beringovskiy,RU,63.05,179.32,1600360704,100,84,43.74,25.478704343100002
76,780687,Berlevåg,NO,70.86,29.09,1600360704,40,70,46.4,23.0180744241
77,3864299,Bermejo,AR,-32.88,-68.8,1600360705,0,16,77.0,15.5019684897
78,5282297,Bethel,US,41.37,-73.41,1600360705,1,64,72.0,13.018969207800001
79,610298,Beyneu,KZ,45.32,55.2,1600360705,0,44,55.94,20.7587687712
80,1637001,Biak,ID,-0.91,122.88,1600360705,5,73,75.92,6.5989620555
81,2126682,Bilibino,RU,68.05,166.44,1600360705,95,96,30.74,6.3976377894
82,2446796,Bilma,NE,18.69,12.92,1600360706,86,13,102.25,4.6975662090000005
83,2175819,Biloela,AU,-24.42,150.5,1600360706,0,90,58.14,11.1623120871
84,3469989,Birigui,BR,-21.29,-50.34,1600360706,0,12,101.05,26.015569052700002
85,1283334,Birin,NP,26.89,88.07,1600360706,75,94,78.8,5.010737289600001
86,2346995,Biu,NG,10.61,12.19,1600360706,65,82,75.56,2.1027201126
87,3491355,Black River,JM,18.03,-77.85,1600360707,40,70,87.8,28.5209376975
88,2206939,Bluff,NZ,-46.6,168.33,1600360707,52,85,39.99,22.3693629
89,3664980,Boa Vista,BR,2.82,-60.67,1600360556,40,55,87.8,13.018969207800001
90,218680,Boende,CD,-0.22,20.87,1600360707,98,85,77.52,7.7621689263
91,575521,Bogorodskoye,RU,56.55,37.88,1600360707,100,95,52.43,23.465461682100003
92,575480,Bogovarovo,RU,58.98,47.02,1600360708,100,87,45.9,21.5640658356
93,5905393,Bonavista,CA,48.65,-53.11,1600360708,72,69,63.55,54.8496778308
94,2937959,Bone,DE,51.97,12.14,1600360708,0,46,64.99,4.4515032171
95,3405051,Borba,BR,-4.39,-59.59,1600360708,31,35,97.59,6.509484603900001
96,6457397,Bose,IT,45.46,8.01,1600360709,11,38,84.99,2.1474588384
97,2290836,Boundiali,CI,9.52,-6.49,1600360709,75,79,80.67,7.2029348538
98,2174444,Bowen,AU,-20.02,148.23,1600360709,90,88,69.8,18.007337134500002
99,4285317,Boyle,US,37.63,-84.87,1600360709,1,69,75.0,18.007337134500002
100,1648082,Boyolangu,ID,-8.12,111.89,1600360709,77,90,73.22,4.2054402252
101,2654970,Brae,GB,60.4,-1.35,1600360710,75,87,55.4,28.5209376975
102,1015776,Bredasdorp,ZA,-34.53,20.04,1600360710,0,67,59.0,13.018969207800001
103,4500920,Brigantine,US,39.41,-74.36,1600360710,20,73,75.99,18.007337134500002
104,2173911,Broken Hill,AU,-31.95,141.43,1600360710,75,53,71.6,23.0180744241
105,5110365,Broome,US,42.25,-75.83,1600360710,20,72,70.0,10.1556907566
106,2109528,Buala,SB,-8.14,159.59,1600360710,100,82,79.23,21.161417303400004
107,2278158,Buchanan,LR,5.88,-10.05,1600360711,75,70,87.8,25.5234430689
108,4255151,Bud,US,39.45,-86.18,1600360711,1,68,75.99,7.5161059344
109,1735079,Bukit Mertajam,MY,5.36,100.47,1600360711,20,94,80.6,3.7580529672
110,1722803,Buluang,PH,13.31,123.34,1600360711,97,88,76.69,10.066213305
111,2173323,Bundaberg,AU,-24.85,152.35,1600360711,9,93,61.0,18.007337134500002
112,107304,Buraidah,SA,26.33,43.98,1600360712,0,16,98.6,20.5127057793
113,4500994,Burlington,US,39.88,-74.64,1600360712,75,83,75.99,14.6519326995
114,2173125,Burnie,AU,-41.07,145.92,1600360712,99,83,44.01,4.4515032171
115,139817,Bushehr,IR,28.97,50.84,1600360712,0,63,93.2,20.5127057793
116,2075265,Busselton,AU,-33.65,115.33,1600360588,18,54,50.0,29.728883294099997
117,2110227,Butaritari,KI,3.07,172.79,1600360713,8,80,81.84,39.52666424430001
118,2172880,Byron Bay,AU,-28.65,153.62,1600360713,8,93,59.0,7.247673579600001
119,3404558,Cabedelo,BR,-6.98,-34.83,1600360713,40,61,82.4,38.5200429138
120,3985710,Cabo San Lucas,MX,22.89,-109.91,1600360713,20,58,90.0,4.9436292009
121,2520645,Cabra,ES,37.47,-4.44,1600360713,100,39,84.0,13.399248377100001
122,2520610,Caceres,ES,39.52,-6.37,1600360714,100,37,81.97,23.3088761418
123,3897347,Calama,CL,-22.47,-68.93,1600360471,0,7,71.6,15.5019684897
124,2270385,Camacha,PT,33.08,-16.33,1600360714,40,73,71.6,43.530780203400006
125,4015938,Villa Juárez,MX,24.65,-107.54,1600360714,40,70,89.01,11.453113804800001
126,3403251,Canto do Buriti,BR,-8.11,-42.94,1600360714,65,20,99.28,15.457229763900001
127,3576818,Cap Estate,LC,14.08,-60.95,1600360715,20,74,87.8,10.513600563
128,934649,Cap Malheureux,MU,-19.98,57.61,1600360715,31,69,72.0,15.658554030000001
129,3369157,Cape Town,ZA,-33.93,18.42,1600360654,2,63,64.0,20.5127057793
130,3466980,Caravelas,BR,-17.71,-39.25,1600360715,0,47,81.09,21.362741569500002
131,2074865,Carnarvon,AU,-24.87,113.63,1600360715,0,82,64.4,20.5127057793
132,5288636,Casa Grande,US,32.88,-111.76,1600360715,1,14,89.6,18.007337134500002
133,3402621,Casa Nova,BR,-9.42,-41.13,1600360716,68,31,87.8,25.5234430689
134,3466752,Cássia,BR,-20.58,-46.92,1600360716,5,16,96.1,8.656943442300001
135,3466704,Castro,BR,-24.79,-50.01,1600360716,91,66,73.29,19.2600214569
136,2940231,Castrop-Rauxel,DE,51.55,7.32,1600360716,1,52,64.99,6.71080887
137,3466696,Catalão,BR,-18.17,-47.95,1600360716,1,15,97.36,1.0066213305
138,3382160,Cayenne,GF,4.93,-52.33,1600360717,37,55,89.6,10.513600563
139,1274886,Chakrāta,IN,30.7,77.85,1600360717,0,95,59.68,10.9162490952
140,3921355,Challapata,BO,-18.9,-66.77,1600360717,60,46,48.81,12.9071223933
141,2171722,Charters Towers,AU,-20.1,146.27,1600360564,95,86,66.78,31.473693600300003
142,1508427,Charyshskoye,RU,51.4,83.56,1600360717,100,80,52.23,16.0164638364
143,569591,Chekhov,RU,55.14,37.47,1600360717,40,87,59.0,20.020579795499998
144,2126199,Cherskiy,RU,68.75,161.3,1600360718,100,95,35.37,18.2534001264
145,2038067,Chifeng,CN,42.27,118.96,1600360718,0,55,51.75,22.9285969725
146,2126123,Chokurdakh,RU,70.63,147.92,1600360718,100,94,41.61,20.6245525938
147,3443061,Chui,UY,-33.7,-53.46,1600360718,0,58,67.41,14.0703292641
148,3466165,Cidreira,BR,-30.18,-50.21,1600360465,87,81,64.85,14.1598067157
149,5924351,Clyde River,CA,70.47,-68.59,1600360719,75,69,37.4,25.5234430689
150,3576994,Cockburn Town,TC,21.46,-71.14,1600360719,80,79,83.61,29.281496036100002
151,2171099,Codrington,AU,-38.27,141.97,1600360719,100,80,46.22,20.7587687712
152,2171085,Coffs Harbour,AU,-30.3,153.13,1600360719,38,77,62.6,15.5019684897
153,3894426,Coyhaique,CL,-45.58,-72.07,1600360549,90,65,44.6,15.5019684897
154,5859699,College,US,64.86,-147.8,1600360719,75,57,52.0,18.007337134500002
155,3860443,Comodoro Rivadavia,AR,-45.87,-67.5,1600360720,40,19,59.0,64.5579813294
156,3893726,Constitución,CL,-35.33,-72.42,1600360720,1,62,62.37,35.8804580916
157,3893629,Coquimbo,CL,-29.95,-71.34,1600360587,0,72,59.0,23.0180744241
158,3942259,Coracora,PE,-15.03,-73.78,1600360720,12,27,62.17,24.9642089964
159,4152311,Crestview,US,30.76,-86.57,1600360627,75,88,73.99,28.5209376975
160,2033413,Cuiluan,CN,47.72,128.65,1600360720,47,92,47.03,5.2568002815
161,4462716,Cumberland,US,35.05,-78.87,1600360721,90,94,73.4,13.018969207800001
162,2253354,Dakar,SN,14.69,-17.44,1600360721,75,79,86.0,31.0263063423
163,1813812,Danshui,CN,22.8,114.47,1600360721,80,99,81.0,13.7124194577
164,1715335,Davila,PH,18.47,120.58,1600360721,40,94,80.6,5.010737289600001
165,2028164,Deputatsky,RU,69.3,139.9,1600360721,100,89,39.38,19.7745168036
166,1337612,Dhidhdhoo,MV,6.88,73.1,1600360722,2,77,82.72,32.5697923824
167,4686163,Dickinson,US,29.46,-95.05,1600360570,75,69,87.01,15.5019684897
168,4618057,Dickson,US,36.08,-87.39,1600360722,1,73,81.0,31.0263063423
169,2445704,Diffa,NE,13.32,12.61,1600360722,0,30,96.57,9.753042224400001
170,1507390,Dikson,RU,73.51,80.55,1600360722,97,84,46.78,26.7761273913
171,1714733,Dingle,PH,11.0,122.67,1600360723,100,91,75.34,9.9096277647
172,338832,Dire Dawa,ET,9.59,41.87,1600360723,65,53,75.63,29.4157122135
173,1812256,Dongsheng,CN,39.82,109.98,1600360723,0,39,54.9,14.8532569656
174,564719,Dubna,RU,56.73,37.17,1600360723,100,92,51.51,20.4679670535
175,2191562,Dunedin,NZ,-45.87,170.5,1600360723,0,67,42.01,22.3693629
176,1179463,Dunga Bunga,PK,29.75,73.24,1600360724,1,33,95.4,18.7231567473
177,4011741,Durango,MX,24.83,-104.83,1600360603,42,61,68.72,13.7124194577
178,1272140,Dwārka,IN,22.24,68.97,1600360724,80,79,83.39,26.619541851
179,1006984,East London,ZA,-33.02,27.91,1600360724,0,59,64.4,18.007337134500002
180,4031742,Egvekinot,RU,66.32,-179.17,1600360724,100,87,35.85,32.4803149308
181,3684276,El Doncello,CO,1.68,-75.28,1600360724,7,53,87.91,9.1490694261
182,2167426,Emerald,AU,-23.53,148.17,1600360725,0,77,64.4,15.5019684897
183,3464100,Entre Rios,BR,-11.94,-38.08,1600360486,80,53,80.82,19.6626699891
184,296852,Erzin,TR,36.96,36.2,1600360725,0,79,84.0,7.3147816683
185,2071860,Esperance,AU,-33.87,121.9,1600360725,75,100,48.2,15.5019684897
186,4034551,Faanui,PF,-16.48,-151.75,1600360725,0,79,77.92,31.0263063423
187,5861897,Fairbanks,US,64.84,-147.72,1600360534,75,66,52.0,23.0180744241
188,5503914,Fallon,US,39.47,-118.78,1600360726,90,23,64.4,15.613815304200001
189,1271900,Fatehpur Sikri,IN,27.1,77.67,1600360726,40,70,87.8,5.010737289600001
190,110690,Faya,SA,18.39,42.45,1600360726,78,53,78.8,8.6122047165
191,5952330,Ferme-Neuve,CA,46.7,-75.45,1600360726,0,41,51.58,13.6005726432
192,562878,Fershampenuaz,RU,53.52,59.81,1600360726,69,79,46.13,21.877236916199998
193,6255012,Flinders,AU,-34.58,150.86,1600360727,98,81,57.99,2.2593056529
194,3156980,Florø,NO,61.6,5.03,1600360538,75,66,55.4,38.5200429138
195,5955902,Fort Nelson,CA,58.81,-122.7,1600360727,75,93,41.0,7.5161059344
196,5563839,Fortuna,US,40.6,-124.16,1600360727,90,100,66.99,13.018969207800001
197,2400578,Fougamou,GA,-1.22,10.58,1600360727,94,82,78.76,6.3081603377999995
198,5117949,Freeport,US,40.66,-73.58,1600360712,75,60,75.2,23.0180744241
199,1863997,Fukuechō,JP,32.69,128.84,1600360728,100,93,74.19,27.581424455700002
200,2037335,Fuyu,CN,45.18,124.82,1600360728,66,95,50.22,15.658554030000001
201,2400547,Gamba,GA,-2.65,10.0,1600360728,69,85,75.54,19.8639942552
202,4993659,Garden City,US,42.33,-83.33,1600360622,40,45,68.0,25.5234430689
203,293842,Kiryat Gat,IL,31.61,34.76,1600360728,0,73,84.99,21.0719398518
204,161974,Bereket,TM,39.24,55.52,1600360729,0,24,67.6,14.3611309818
205,1735106,George Town,MY,5.41,100.34,1600360594,20,94,80.6,4.250178951
206,2070998,Geraldton,AU,-28.77,114.6,1600360729,0,71,50.0,18.007337134500002
207,933759,Ghanzi,BW,-21.57,21.78,1600360729,25,18,75.7,12.4149964095
208,1506499,Glyadyanskoye,RU,54.91,65.09,1600360729,96,87,50.68,30.4670722698
209,5962442,Goderich,CA,43.75,-81.72,1600360729,27,67,64.0,31.630279140600003
210,2023943,Gorin,RU,51.2,136.67,1600360730,100,95,49.24,18.6113099328
211,2360372,Gorom-Gorom,BF,14.44,-0.24,1600360730,85,64,81.82,18.409985666700003
212,1863521,Gōtsuchō,JP,35.0,132.22,1600360730,100,94,69.6,20.5127057793
213,5577592,Greeley,US,40.42,-104.71,1600360578,1,59,64.99,7.3147816683
214,4920986,Griffith,US,41.53,-87.42,1600360730,75,68,70.0,31.0263063423
215,3416888,Grindavik,IS,63.84,-22.43,1600360731,75,87,50.0,46.528274832
216,3557347,Güira de Melena,CU,22.79,-82.51,1600360731,40,74,86.0,13.018969207800001
217,3461733,Guiratinga,BR,-16.35,-53.76,1600360731,41,14,99.27,5.905511805600001
218,890422,Gweru,ZW,-19.45,29.82,1600360731,61,25,75.15,16.6651753605
219,5354943,Half Moon Bay,US,37.46,-122.43,1600360712,90,100,66.99,7.5161059344
220,1244926,Hambantota,LK,6.12,81.12,1600360731,40,94,80.6,23.0180744241
221,1529484,Kumul,CN,42.8,93.45,1600360732,0,21,70.57,10.2675375711
222,4513583,Hamilton,US,39.18,-84.53,1600360732,1,56,80.01,10.513600563
223,2276492,Harper,LR,4.38,-7.72,1600360732,95,86,75.27,25.612920520499998
224,2112802,Hasaki,JP,35.73,140.83,1600360732,75,94,78.01,15.5019684897
225,3013633,Arrondissement du Havre,FR,49.58,0.33,1600360732,0,52,69.8,38.5200429138
226,5972291,Havre-St-Pierre,CA,50.23,-63.6,1600360733,1,66,50.0,49.0336434768
227,3356832,Henties Bay,NA,-22.12,14.28,1600360733,0,86,57.0,13.399248377100001
228,3366880,Hermanus,ZA,-34.42,19.23,1600360733,2,72,57.99,12.817644941700001
229,2146219,Hervey Bay,AU,-25.3,152.85,1600360733,8,90,62.01,6.71080887
230,5855927,Hilo,US,19.73,-155.09,1600360733,75,78,71.6,15.5019684897
231,1862505,Hirara,JP,24.8,125.28,1600360734,74,81,84.2,37.1778811398
232,1282256,Hithadhoo,MV,-0.6,73.08,1600360734,94,78,82.98,25.8142447866
233,2163355,Hobart,AU,-42.88,147.33,1600360734,0,83,37.4,13.018969207800001
234,57000,Hobyo,SO,5.35,48.53,1600360734,0,84,77.54,55.5878668065
235,2630299,Hofn,IS,64.25,-15.21,1600360734,75,81,51.8,51.5390121216
236,2624652,Holme,DK,56.11,10.17,1600360735,69,51,60.8,7.5161059344
237,5864145,Homer,US,59.64,-151.55,1600360735,90,67,57.2,23.0180744241
238,1789137,Honghu,CN,29.82,113.46,1600360735,99,92,61.54,7.6950608376
239,1516048,Khovd,MN,48.01,91.64,1600360735,0,40,54.84,3.1988188947
240,3939761,Hualmay,PE,-11.1,-77.61,1600360735,43,63,67.26,20.7140300454
241,3939168,Huarmey,PE,-10.07,-78.15,1600360736,52,65,67.05,19.2600214569
242,5158275,Huron,US,41.15,-82.55,1600360736,89,76,64.99,8.94774516
243,2629833,Husavik,IS,66.04,-17.34,1600360736,40,50,55.4,28.5209376975
244,3887344,Illapel,CL,-31.63,-71.17,1600360736,0,24,82.35,15.5690765784
245,3423146,Ilulissat,GL,69.22,-51.1,1600360736,75,74,37.4,23.0180744241
246,3461370,Imbituba,BR,-28.24,-48.67,1600360737,75,94,68.0,15.5019684897
247,1045114,Inhambane,MZ,-23.86,35.38,1600360737,40,88,78.8,10.513600563
248,3671450,Inírida,CO,3.87,-67.92,1600360737,1,47,94.62,4.0935934107000005
249,3408424,Ipixuna,BR,-1.76,-48.8,1600360737,75,59,89.6,15.5019684897
250,5983720,Iqaluit,CA,63.75,-68.51,1600360515,75,65,41.0,11.453113804800001
251,3381428,Iracoubo,GF,5.48,-53.2,1600360737,80,81,83.5,26.8208661171
252,2136825,Isangel,VU,-19.55,169.27,1600360738,40,88,68.0,20.2219040616
253,555994,Ishcherskaya,RU,43.72,45.13,1600360738,0,63,66.2,35.0304223014
254,3397967,Itaituba,BR,-4.28,-55.98,1600360738,20,47,96.8,10.3570150227
255,3397763,Jacareacanga,BR,-6.22,-57.75,1600360738,30,26,100.15,5.7489262653
256,3074587,Jáchymov,CZ,50.36,12.93,1600360738,18,51,59.0,18.007337134500002
257,5733351,Jackson,US,42.42,-122.83,1600360739,90,71,63.0,7.5161059344
258,86049,Jalu,LY,29.03,21.55,1600360739,0,25,92.64,22.1232999081
259,5122534,Jamestown,US,42.1,-79.24,1600360739,75,77,66.0,13.018969207800001
260,1805733,Jinchang,CN,38.5,102.17,1600360739,0,29,61.25,6.263421612
261,105298,Jizan,SA,17.33,42.67,1600360739,18,67,93.2,18.007337134500002
262,1283285,Jumla,NP,29.27,82.18,1600360740,71,70,62.49,2.3487831045000003
263,2189343,Kaeo,NZ,-35.1,173.78,1600360740,71,3,53.01,4.4515032171
264,5847411,Kahului,US,20.89,-156.47,1600360740,1,64,73.99,13.018969207800001
265,2208248,Kaitangata,NZ,-46.28,169.85,1600360740,0,73,39.0,11.2070508129
266,214974,Kalemie,CD,-5.95,29.19,1600360741,45,46,80.31,1.7448103062
267,2112444,Kamaishi,JP,39.27,141.88,1600360741,99,87,72.05,11.855762337
268,923058,Kambove,CD,-10.88,26.6,1600360741,78,30,77.83,7.3595203941000005
269,2094746,Kandrian,PG,-6.22,149.55,1600360741,24,88,77.86,12.2584108692
270,5848280,Kapaa,US,22.08,-159.32,1600360721,20,69,80.6,25.5234430689
271,372884,Kapoeta,SS,4.77,33.59,1600360742,13,36,86.23,13.5558339174
272,3356343,Karasburg,NA,-28.02,18.75,1600360742,0,22,65.1,6.4647458781000005
273,6620339,Karratha,AU,-20.74,116.85,1600360742,0,66,71.42,15.5690765784
274,2068655,Katherine,AU,-14.47,132.27,1600360742,35,54,84.2,25.5234430689
275,2112309,Katsuura,JP,35.13,140.3,1600360742,79,87,81.0,15.658554030000001
276,1267390,Kavaratti,IN,10.57,72.64,1600360743,94,81,82.15,43.172870397000004
277,2094342,Kavieng,PG,-2.57,150.8,1600360743,73,78,82.18,25.0089477222
278,5866063,Kenai,US,60.55,-151.26,1600360743,90,87,51.8,13.018969207800001
279,5991056,Kenora,CA,49.82,-94.43,1600360548,75,49,46.4,13.018969207800001
280,2618944,Kerteminde,DK,55.45,10.66,1600360743,55,67,59.0,15.5019684897
281,5554428,Ketchikan,US,55.34,-131.65,1600360511,20,93,55.4,13.018969207800001
282,610864,Khani,GE,41.96,42.96,1600360744,13,50,77.0,61.538117337900005
283,2039557,Khasan,RU,42.43,130.64,1600360744,78,75,59.47,13.6676807319
284,2022572,Khatanga,RU,71.97,102.5,1600360744,16,79,47.71,13.5110951916
285,2022304,Khorinsk,RU,52.17,109.77,1600360744,1,77,44.67,2.5053686448000003
286,2455290,Kidal,ML,18.44,1.41,1600360744,84,23,99.57,36.126521083499995
287,2094027,Kieta,PG,-6.22,155.63,1600360745,100,86,78.96,26.418217584900002
288,2314705,Kikwit,CD,-5.04,18.82,1600360745,100,83,74.86,2.7514316367
289,157429,Kilindoni,TZ,-7.91,39.67,1600360745,0,79,76.75,28.028811713699998
290,2963218,Kilrush,IE,52.64,-9.48,1600360745,40,73,69.8,13.018969207800001
291,2314302,Kinshasa,CD,-4.32,15.32,1600360621,75,88,75.2,10.513600563
292,2178753,Kirakira,SB,-10.45,161.92,1600360745,83,84,79.56,31.8316034067
293,212730,Kisangani,CD,0.52,25.2,1600360746,75,52,91.4,10.513600563
294,2334327,Kisi,NG,9.08,3.85,1600360746,74,87,78.13,10.3122762969
295,55671,Kismayo,SO,-0.36,42.55,1600360746,9,81,78.08,25.858983512400002
296,5993072,Kitimat,CA,54.05,-128.65,1600360646,3,93,54.0,2.8632784512000002
297,2093846,Kiunga,PG,-6.12,141.29,1600360746,100,98,74.35,1.0960987821000001
298,2618795,Klaksvík,FO,62.23,-6.59,1600360747,100,100,53.6,13.018969207800001
299,7671223,Kloulklubed,PW,7.04,134.26,1600360747,75,94,77.0,10.513600563
300,5866583,Saint Paul Harbor,US,57.79,-152.41,1600360747,75,71,50.0,13.018969207800001
301,1503037,Kodinsk,RU,58.69,99.18,1600360747,99,70,51.24,10.401753748500001
302,705433,Kolochava,UA,48.43,23.7,1600360747,91,83,59.18,14.2716535302
303,1513714,Kosonsoy,UZ,41.26,71.55,1600360748,75,34,68.0,56.549749411200004
304,1502073,Krasnosel'kup,RU,65.7,82.47,1600360508,77,85,48.15,32.0776663986
305,986717,Kruisfontein,ZA,-34.0,24.73,1600360748,0,75,59.0,4.4515032171
306,1735634,Kuching,MY,1.55,110.33,1600360674,20,94,77.0,5.5028632734
307,539389,Kulotino,RU,58.45,33.38,1600360748,95,90,45.79,8.94774516
308,2068110,Kununurra,AU,-15.77,128.73,1600360748,100,78,75.2,10.513600563
309,1519924,Kushmurun,KZ,52.45,64.63,1600360749,84,84,51.64,28.028811713699998
310,371745,Kutum,SD,14.2,24.67,1600360749,47,27,85.77,19.8192555294
311,2021017,Kysyl-Syr,RU,63.9,122.76,1600360749,0,84,40.26,3.6462061527
312,1500957,Kyzyl-Mazhalyk,RU,51.13,90.6,1600360749,100,55,53.13,4.6080887574
313,1527497,Kyzyl-Suu,KG,42.34,78.0,1600360750,52,63,53.53,2.5948460964
314,3682313,La Antigua,CO,6.72,-76.08,1600360750,63,76,71.24,7.158196128
315,3480908,La Asuncion,VE,11.03,-63.86,1600360750,79,100,73.4,13.018969207800001
316,3655131,La Libertad,EC,-2.23,-80.9,1600360750,75,73,75.2,23.0180744241
317,1733782,Labuan,MY,5.28,115.24,1600360750,20,94,78.8,9.0595919745
318,6014443,Lac du Bonnet,CA,50.25,-96.06,1600360751,95,99,48.99,7.5608446602
319,2092740,Lae,PG,-6.72,146.98,1600360751,83,80,75.88,3.3106657092000003
320,3372964,Lagoa,PT,39.05,-27.98,1600360751,8,64,67.71,25.165533262500002
321,5364271,Laguna,US,38.42,-121.42,1600360751,90,93,68.0,10.513600563
322,6201197,Muhafazat Lahij,YE,13.17,44.58,1600360751,31,48,91.4,14.763779514
323,2285449,Lakota,CI,5.85,-5.69,1600360752,78,79,77.4,14.0032211754
324,332288,Lalibela,ET,12.03,39.03,1600360752,41,61,59.83,12.168933417600002
325,5524849,Lamesa,US,32.74,-101.95,1600360752,90,57,75.99,13.018969207800001
326,408689,Lárdos,GR,36.09,28.02,1600360752,0,74,82.4,25.5234430689
327,3175096,Laas,IT,46.62,10.7,1600360752,40,63,70.0,7.5161059344
328,2160517,Launceston,AU,-41.45,147.17,1600360752,90,86,43.0,5.9949892572
329,4031637,Lavrentiya,RU,65.58,-171.0,1600360753,13,90,40.05,16.8217609008
330,4026082,Lázaro Cárdenas,MX,17.96,-102.2,1600360753,54,73,84.07,2.7066929109
331,3883457,Lebu,CL,-37.62,-73.65,1600360753,80,77,54.03,20.6245525938
332,2123814,Leningradskiy,RU,69.38,178.42,1600360753,100,95,33.24,38.6766284541
333,535839,Leshukonskoye,RU,64.9,45.76,1600360753,100,83,39.99,13.869004998000001
334,5197850,Lewistown,US,40.6,-77.57,1600360754,1,77,71.01,4.250178951
335,1804451,Lianyuan,CN,27.69,111.66,1600360754,100,89,62.55,4.4515032171
336,1803841,Lianzhou,CN,24.78,112.38,1600360754,96,80,69.85,13.2202934739
337,2036069,Linjiang,CN,41.81,126.91,1600360754,55,85,51.73,7.0463493135
338,2524379,Lipari,IT,38.47,14.95,1600360754,41,74,80.01,35.9251968174
339,1637510,Loa Janan,ID,-0.58,117.09,1600360679,90,92,74.88,1.8566571207
340,2524371,Locri,IT,38.24,16.26,1600360755,40,69,80.6,25.5234430689
341,211647,Lodja,CD,-3.48,23.43,1600360755,69,63,81.12,3.8475304188
342,1500399,Lokosovo,RU,61.13,74.82,1600360755,100,88,45.59,13.5558339174
343,5367788,Lompoc,US,34.64,-120.46,1600360588,90,93,55.4,13.018969207800001
344,2729907,Longyearbyen,SJ,78.22,15.64,1600360756,75,94,35.6,31.0263063423
345,534206,Lopatino,RU,52.62,45.81,1600360756,100,55,53.92,20.8706155857
346,2092164,Lorengau,PG,-2.02,147.27,1600360756,96,81,81.21,20.5127057793
347,2514651,Los Llanos de Aridane,ES,28.66,-17.92,1600360756,20,61,78.8,15.5019684897
348,2240449,Luanda,AO,-8.84,13.23,1600360756,75,78,75.2,18.007337134500002
349,3355672,Lüderitz,NA,-26.65,15.16,1600360757,10,61,61.97,31.473693600300003
350,155584,Lupiro,TZ,-8.38,36.67,1600360757,0,40,81.52,9.5069792325
351,3395981,Maceió,BR,-9.67,-35.74,1600360757,40,65,82.4,28.5209376975
352,934322,Mahébourg,MU,-20.41,57.7,1600360757,75,68,71.6,31.0263063423
353,5850554,Makakilo City,US,21.35,-158.09,1600360757,1,78,78.8,21.5640658356
354,608872,Makat,KZ,47.65,53.35,1600360758,21,38,59.95,13.7124194577
355,1702944,Malayal,PH,7.21,121.94,1600360758,75,88,77.0,13.018969207800001
356,3381041,Mana,GF,5.66,-53.78,1600360758,98,75,84.99,18.857372924699998
357,2030065,Mandalgovi,MN,45.76,106.27,1600360758,0,59,45.12,3.7580529672
358,187896,Mandera,KE,3.94,41.87,1600360758,0,33,88.54,29.1696492216
359,1636426,Manggar,ID,-2.88,108.27,1600360759,16,80,80.26,20.7140300454
360,3421982,Maniitsoq,GL,65.42,-52.9,1600360759,43,72,38.89,7.3147816683
361,2067089,Maningrida,AU,-12.07,134.27,1600360631,9,83,74.12,14.4058697076
362,3663495,Manoel Urbano,BR,-8.84,-69.26,1600360759,40,25,104.65,3.5119899753
363,1636308,Manokwari,ID,-0.87,134.08,1600360759,94,77,78.66,12.750536853
364,2469252,Menzel Salem,TN,35.86,8.48,1600360760,40,17,84.2,20.5127057793
365,3430863,Mar del Plata,AR,-38.0,-57.56,1600360760,27,29,75.2,41.0254115586
366,1734715,Marang,MY,5.21,103.21,1600360760,40,94,75.2,5.010737289600001
367,2643044,Margate,GB,51.38,1.39,1600360760,0,60,64.99,8.94774516
368,2158562,Maryborough,AU,-25.53,152.7,1600360761,13,90,62.01,6.71080887
369,6067472,Marystown,CA,47.17,-55.15,1600360761,13,100,68.0,22.3693629
370,2428231,Massaguet,TD,12.48,15.44,1600360761,20,59,91.4,13.018969207800001
371,878054,Masuguru,TZ,-11.37,38.42,1600360761,24,41,85.91,31.7197565922
372,6067747,Matagami,CA,49.75,-77.63,1600360761,1,56,42.8,25.5234430689
373,6201424,Mataura,NZ,-46.19,168.86,1600360761,33,85,39.99,22.3693629
374,878041,Matiri,TZ,-10.75,34.9,1600360762,44,40,73.17,10.8491410065
375,3395062,Maués,BR,-3.38,-57.72,1600360762,41,35,97.0,7.0016105877
376,1635815,Maumere,ID,-8.62,122.21,1600360762,88,77,76.48,6.6660701442
377,1039536,Maxixe,MZ,-23.86,35.35,1600360762,40,88,78.8,10.513600563
378,3867427,Mayor Pablo Lagerenza,PY,-19.93,-60.77,1600360762,86,43,85.84,23.1746599644
379,104515,Makkah al Mukarramah,SA,21.43,39.83,1600360639,45,33,89.1,2.9527559028000003
380,1499053,Megion,RU,61.03,76.11,1600360763,70,71,50.0,20.020579795499998
381,778707,Mehamn,NO,71.04,27.85,1600360763,75,70,46.4,25.5234430689
382,3173615,Melfi,IT,41.0,15.65,1600360763,97,65,78.8,25.5234430689
383,2082539,Merauke,ID,-8.47,140.33,1600360763,79,85,78.93,22.1680386339
384,1214488,Meulaboh,ID,4.14,96.13,1600360764,100,86,77.56,8.500357902
385,527321,Mezen',RU,65.85,44.24,1600360764,64,89,38.26,12.303149595
386,153955,Micheweni,TZ,-4.97,39.83,1600360764,1,79,76.78,27.0221903832
387,5666176,Miles City,US,46.41,-105.84,1600360472,1,62,55.4,13.5110951916
388,5690532,Minot,US,48.23,-101.3,1600360737,90,40,55.99,18.007337134500002
389,1738050,Marabu,MY,4.41,114.01,1600360765,20,94,78.8,5.010737289600001
390,2214827,Mizdah,LY,31.45,12.98,1600360765,0,28,82.98,33.4869362613
391,975436,Mmabatho,ZA,-25.85,25.63,1600360765,20,13,86.0,18.007337134500002
392,2398269,Moanda,GA,-1.56,13.22,1600360765,40,73,77.0,13.018969207800001
393,53654,Mogadishu,SO,2.04,45.34,1600360755,3,80,78.04,37.0212955995
394,6078372,Moose Factory,CA,51.26,-80.61,1600360765,1,49,48.2,36.0370436319
395,2156927,Moree,AU,-29.47,149.85,1600360766,3,48,64.4,20.5127057793
396,3430545,Morón,AR,-34.65,-58.62,1600360759,0,35,73.99,28.5209376975
397,1058381,Morondava,MG,-20.28,44.28,1600360766,24,81,75.97,17.8731209571
398,2156643,Mount Gambier,AU,-37.83,140.77,1600360766,90,76,50.0,31.0263063423
399,2065594,Mount Isa,AU,-20.73,139.5,1600360766,5,40,69.8,5.010737289600001
400,5127835,Mount Vernon,US,40.91,-73.84,1600360766,90,56,75.0,20.5127057793
401,2297834,Mpraeso,GH,6.59,-0.73,1600360767,9,81,78.01,13.354509651299999
402,905382,Mufumbwe,ZM,-13.68,24.8,1600360767,63,31,77.86,3.4001431608
403,2019718,Mukhen,RU,48.1,136.1,1600360767,72,91,54.7,8.0977093698
404,2297810,Mumford,GH,5.26,-0.76,1600360767,44,84,76.8,31.227630608400002
405,3115824,Muros,ES,42.78,-9.06,1600360768,54,92,64.99,26.8208661171
406,902620,Mwinilunga,ZM,-11.74,24.43,1600360768,68,33,76.35,1.6105941288
407,1308204,Myanaung,MM,18.28,95.32,1600360768,91,83,78.89,2.908017177
408,1307741,Myitkyina,MM,25.38,97.4,1600360768,95,95,75.2,1.6553328546000001
409,1262062,Naliya,IN,23.27,68.83,1600360768,65,81,83.93,28.274874705600002
410,2214432,Nālūt,LY,30.33,10.85,1600360769,0,16,82.6,9.864889038900001
411,2090021,Namatanai,PG,-3.67,152.43,1600360769,100,81,79.54,8.8135289826
412,3421765,Nanortalik,GL,60.14,-45.24,1600360769,83,67,41.43,11.7662848854
413,4944903,Nantucket,US,41.28,-70.1,1600360769,1,78,71.6,23.0180744241
414,3421719,Narsaq,GL,60.92,-46.05,1600360769,75,56,44.6,5.010737289600001
415,523392,Naryan-Mar,RU,67.67,53.09,1600360770,92,70,41.31,26.7761273913
416,3394023,Natal,BR,-5.79,-35.21,1600360770,40,54,84.2,49.0336434768
417,1855540,Naze,JP,28.37,129.48,1600360770,75,88,82.4,20.5127057793
418,3430443,Necochea,AR,-38.55,-58.74,1600360770,30,45,71.01,38.02791693
419,2155562,Nelson Bay,AU,-32.72,152.15,1600360770,90,82,64.0,28.5209376975
420,2128975,Nemuro,JP,43.32,145.57,1600360771,100,97,67.77,25.0089477222
421,3144661,Nesna,NO,66.2,13.02,1600360771,75,70,48.2,49.0336434768
422,2155415,New Norfolk,AU,-42.78,147.06,1600360771,0,70,36.0,6.509484603900001
423,2641598,Newport,GB,51.59,-3.0,1600360771,0,62,70.0,26.2168933188
424,2186111,Ngunguru,NZ,-35.62,174.5,1600360771,6,3,53.01,4.4515032171
425,3622716,Nicoya,CR,10.15,-85.45,1600360771,75,83,84.2,7.5161059344
426,546105,Nikolskoye,RU,59.7,30.79,1600360772,75,81,48.99,20.020579795499998
427,2412408,Nioro,GM,13.35,-15.75,1600360772,92,74,85.5,25.858983512400002
428,6088469,Nipawin,CA,53.37,-104.0,1600360772,90,81,44.6,15.5019684897
429,1855342,Nishihara,JP,26.18,127.76,1600360772,75,94,82.4,18.007337134500002
430,3058531,Nitra,SK,48.31,18.08,1600360772,20,56,71.01,38.5200429138
431,286987,Nizwá,OM,22.93,57.53,1600360611,0,14,87.89,9.5964566841
432,933211,Nokaneng,BW,-19.67,22.27,1600360773,78,14,83.77,10.2675375711
433,5870133,Nome,US,64.5,-165.41,1600360715,90,75,46.99,33.531674987100004
434,6089245,Norman Wells,CA,65.28,-126.83,1600360773,40,93,41.0,5.010737289600001
435,2688368,Norrköping,SE,58.59,16.18,1600360773,65,47,55.4,28.5209376975
436,5742974,North Bend,US,43.41,-124.22,1600360741,90,100,66.99,4.4515032171
437,2377457,Nouadhibou,MR,20.93,-17.03,1600360774,13,71,78.76,45.4321760499
438,2139521,Noumea,NC,-22.28,166.46,1600360774,17,88,71.01,2.5053686448000003
439,3421319,Nuuk,GL,64.18,-51.72,1600360774,40,73,39.2,20.5127057793
440,516647,Nyandoma,RU,61.67,40.2,1600360774,100,97,42.17,30.6683965359
441,2018735,Nyurba,RU,63.28,118.33,1600360774,0,86,39.99,4.0935934107000005
442,3617448,Ocotal,NI,13.63,-86.48,1600360775,42,62,85.33,2.7514316367
443,3194183,Ogulin,HR,45.27,15.23,1600360775,20,47,80.6,46.528274832
444,2122605,Okhotsk,RU,59.38,143.3,1600360775,0,69,46.44,14.0703292641
445,515805,Oktyabr'skoye,RU,43.06,44.74,1600360775,0,59,64.4,25.0089477222
446,3414079,Olafsvik,IS,64.89,-23.71,1600360775,83,84,49.19,53.68647096
447,2396853,Omboué,GA,-1.57,9.26,1600360776,70,80,76.19,23.062813149900002
448,1496100,Ordynskoye,RU,54.37,81.9,1600360776,39,78,49.77,20.266642787400002
449,3393471,Oriximiná,BR,-1.77,-55.87,1600360776,1,31,98.4,13.2202934739
450,2685750,Östersund,SE,63.18,14.64,1600360776,100,70,46.4,7.5161059344
451,556268,Ostrovnoy,RU,68.05,39.51,1600360776,0,83,41.0,8.7464208939
452,6095416,Outlook,CA,51.5,-107.05,1600360777,10,57,55.0,2.2593056529
453,1633419,Padang,ID,-0.95,100.35,1600360552,96,78,77.72,8.500357902
454,4946620,Palmer,US,42.16,-72.33,1600360777,75,60,73.99,13.018969207800001
455,6301965,Palmerston,AU,-12.49,130.98,1600360599,40,78,82.0,7.5161059344
456,6096551,Pangnirtung,CA,66.15,-65.71,1600360777,90,52,41.0,7.5161059344
457,3393115,Paracuru,BR,-3.41,-39.03,1600360777,0,70,80.01,46.97566209
458,2988507,Paris,FR,48.85,2.35,1600360623,0,29,78.01,28.5209376975
459,3392907,Pastos Bons,BR,-6.6,-44.08,1600360778,70,20,100.15,17.4033643362
460,1260129,Patharia,IN,23.9,79.2,1600360778,45,62,81.5,6.9568718619
461,1028918,Pemba,MZ,-12.97,40.52,1600360778,20,78,78.01,18.007337134500002
462,2264923,Peniche,PT,39.36,-9.38,1600360778,0,75,73.0,24.6286685529
463,2640351,Peterhead,GB,57.51,-1.8,1600360779,25,77,61.0,25.5234430689
464,2122104,Petropavlovsk-Kamchatskiy,RU,53.05,158.65,1600360779,100,100,46.4,5.010737289600001
465,2122090,Pevek,RU,69.7,170.31,1600360779,94,96,34.21,25.6800286092
466,642455,Pedersore,FI,63.65,22.68,1600360779,75,76,50.0,36.0370436319
467,3932145,Pisco,PE,-13.7,-76.22,1600360779,90,87,61.0,18.007337134500002
468,7290171,Plaster Rock,CA,46.91,-67.39,1600360780,40,51,62.6,20.5127057793
469,3517970,Pochutla,MX,15.74,-96.47,1600360780,75,66,89.01,8.2990336359
470,3466641,Pojuca,BR,-12.42,-38.33,1600360780,20,57,80.6,20.5127057793
471,1282898,Pokhara,NP,28.23,83.98,1600360780,100,82,72.1,5.7041875394999995
472,1494523,Polovinnoye,RU,54.79,65.99,1600360780,91,92,48.7,28.7670006894
473,1494482,Polunochnoye,RU,60.87,60.42,1600360781,44,85,40.17,14.0032211754
474,3372783,Ponta Delgada,PT,37.73,-25.67,1600360781,20,56,71.6,25.5234430689
475,2264557,Ponta do Sol,PT,32.67,-17.1,1600360781,82,66,71.01,11.2070508129
476,6322927,Pontal do Paraná,BR,-25.65,-48.51,1600360781,75,53,75.2,38.5200429138
477,964432,Port Alfred,ZA,-33.59,26.89,1600360781,0,70,59.49,4.8541517493
478,1259385,Port Blair,IN,11.67,92.75,1600360782,100,85,80.37,45.678239041800005
479,964420,Port Elizabeth,ZA,-33.92,25.57,1600360782,0,77,59.0,13.018969207800001
480,6111867,Port Hawkesbury,CA,45.62,-61.35,1600360782,40,64,72.0,36.0370436319
481,2063039,Port Keats,AU,-14.25,129.55,1600360782,83,84,77.4,13.6676807319
482,2063036,Port Lincoln,AU,-34.73,135.87,1600360782,97,85,59.14,47.3335718964
483,2152659,Port Macquarie,AU,-31.43,152.92,1600360782,72,85,60.01,25.724767335
484,2396518,Port-Gentil,GA,-0.72,8.78,1600360783,40,74,80.6,33.822476704799996
485,5746545,Portland,US,45.52,-122.68,1600360421,90,100,60.01,7.5161059344
486,3452711,Porto Nacional,BR,-10.71,-48.42,1600360783,13,30,95.0,20.5127057793
487,2392087,Porto-Novo,BJ,6.5,2.6,1600360783,40,78,82.4,20.5127057793
488,3662761,Porto Walter,BR,-8.27,-72.74,1600360783,58,33,97.92,6.8450250474
489,3702577,Portobelo,PA,9.55,-79.65,1600360784,39,70,86.0,15.658554030000001
490,2138555,Poum,NC,-20.23,164.02,1600360784,15,78,71.67,26.977451657400003
491,3374333,Praia,CV,14.92,-23.51,1600360784,60,72,83.3,14.0703292641
492,6113406,Prince Rupert,CA,54.32,-130.32,1600360784,90,93,55.4,6.3081603377999995
493,4169345,Princeton,US,25.54,-80.41,1600360553,20,70,90.0,20.5127057793
494,3521108,Progreso,MX,21.28,-89.67,1600360785,75,74,91.0,18.007337134500002
495,4031574,Provideniya,RU,64.38,-173.3,1600360785,84,89,42.67,18.0744452232
496,3629710,Puerto Ayacucho,VE,5.66,-67.62,1600360785,20,58,87.8,10.513600563
497,3652764,Puerto Ayora,EC,-0.74,-90.35,1600360785,40,68,71.6,25.5234430689
498,2512186,Puerto del Rosario,ES,28.5,-13.86,1600360785,100,51,86.0,46.528274832
499,3520994,Puerto Escondido,MX,15.85,-97.07,1600360786,75,62,87.8,13.018969207800001
500,3840092,Puerto Madryn,AR,-42.77,-65.04,1600360656,0,29,62.47,104.0399068479
501,3991350,Puerto Palomas,MX,31.77,-107.62,1600360786,1,26,78.8,33.531674987100004
502,3671337,Puerto Rondón,CO,6.28,-71.1,1600360786,19,62,87.53,13.9584824496
503,3874787,Punta Arenas,CL,-53.15,-70.92,1600360786,75,80,39.2,77.0624551905
504,3629614,Punta Cardon,VE,11.66,-70.22,1600360786,15,58,88.14,32.6816391969
505,1259163,Puruliya,IN,23.33,86.37,1600360787,100,80,82.22,8.7016821681
506,3831208,Qaanaaq,GL,77.48,-69.36,1600360787,0,82,20.93,21.0719398518
507,1568770,Quang Ngai,VN,15.12,108.8,1600360787,100,88,75.61,27.6709019073
508,1106643,Quatre Cocos,MU,-20.21,57.76,1600360787,75,68,72.0,31.0263063423
509,1028434,Quelimane,MZ,-17.88,36.89,1600360787,0,74,80.01,61.538117337900005
510,236524,Rafai,CF,4.95,23.92,1600360788,18,86,74.82,4.8541517493
511,368246,Raja,SS,8.46,25.68,1600360788,6,83,76.69,6.9568718619
512,2523649,Province of Ragusa,IT,36.92,14.6,1600360788,21,37,84.2,28.5209376975
513,1629974,Rantepao,ID,-2.97,119.9,1600360788,83,67,65.35,4.8541517493
514,3839307,Rawson,AR,-43.3,-65.1,1600360789,7,30,61.23,100.7292411387
515,4976361,Raymond,US,43.9,-70.47,1600360789,7,100,73.99,1.6553328546000001
516,3429594,Reconquista,AR,-29.15,-59.65,1600360619,0,41,74.41,7.4042591199
517,3451478,Riachão das Neves,BR,-11.75,-44.91,1600360785,5,14,106.57,5.4133858218
518,3372707,Ribeira Grande,PT,38.52,-28.7,1600360791,20,68,69.8,18.007337134500002
519,3451363,Ribeirão Bonito,BR,-22.07,-48.18,1600360791,1,20,93.72,12.661059401400001
520,962367,Richards Bay,ZA,-28.78,32.04,1600360791,43,70,67.82,13.3097709255
521,4030556,Rikitea,PF,-23.12,-134.97,1600360792,93,81,72.14,53.6417322342
522,3451234,Rio Claro,BR,-22.41,-47.56,1600360792,3,16,99.0,15.5019684897
523,3838859,Río Gallegos,AR,-51.62,-69.22,1600360637,40,39,48.2,92.56442368020001
524,3838759,Rivadavia,AR,-33.19,-68.46,1600360792,0,16,77.0,15.5019684897
525,2062276,Roebourne,AU,-20.78,117.13,1600360792,0,47,73.67,15.8598782961
526,350203,Rosetta,EG,31.4,30.42,1600360583,0,66,86.0,25.5234430689
527,3353383,Rundu,NA,-17.93,19.77,1600360793,0,15,81.41,10.960987821000002
528,5044290,Saint Anthony,US,45.02,-93.22,1600360793,1,35,55.99,15.5019684897
529,5546220,Saint George,US,37.1,-113.58,1600360608,1,15,78.01,8.0977093698
530,6137462,Saint-Augustin,CA,51.23,-58.65,1600360793,84,44,62.74,53.798317774500006
531,2980080,Saint-François,FR,46.42,3.91,1600360793,0,28,86.0,38.5200429138
532,6690296,Saint-Joseph,RE,-21.37,55.62,1600360794,75,60,71.6,10.513600563
533,935221,Saint-Paul,RE,-21.01,55.27,1600360794,75,73,70.0,33.531674987100004
534,935215,Saint-Philippe,RE,-21.36,55.77,1600360788,75,60,71.6,10.513600563
535,3374235,Sal Rei,CV,16.18,-22.92,1600360794,75,70,86.0,31.0263063423
536,2295684,Salaga,GH,8.55,-0.52,1600360794,2,72,83.23,10.714924829100001
537,1493224,Salair,RU,54.23,85.8,1600360794,100,91,53.11,27.7156406331
538,286621,Salalah,OM,17.02,54.09,1600360795,75,88,80.6,15.5019684897
539,3361934,Saldanha,ZA,-33.01,17.94,1600360622,2,63,62.6,23.0180744241
540,499025,Samoded,RU,63.61,40.51,1600360795,100,95,40.32,30.1315318263
541,3670218,San Andrés,CO,12.58,-81.7,1600360795,20,66,87.8,15.5019684897
542,3628473,San Cristobal,VE,7.77,-72.22,1600360795,20,62,86.0,13.018969207800001
543,5391959,San Francisco,US,37.77,-122.42,1600360768,75,88,66.2,8.7016821681
544,3437056,San Lorenzo,PY,-25.33,-57.53,1600360796,20,65,77.0,18.007337134500002
545,3985168,San Patricio,MX,19.22,-104.7,1600360796,75,66,89.6,10.1556907566
546,1688781,City of San Pedro,PH,14.35,121.02,1600360796,40,83,80.6,5.010737289600001
547,1688696,San Policarpo,PH,12.18,125.51,1600360796,100,82,77.67,9.753042224400001
548,3984997,San Quintín,MX,30.48,-115.95,1600360796,0,31,86.77,19.461345722999997
549,2511180,Santa Cruz de La Palma,ES,28.68,-17.76,1600360797,20,61,78.8,15.5019684897
550,3388847,São Félix do Xingu,BR,-6.64,-51.99,1600360797,3,17,106.86,8.3661417246
551,3374210,São Filipe,CV,14.9,-24.5,1600360797,72,78,81.81,11.6544380709
552,3448903,São João da Barra,BR,-21.64,-41.05,1600360797,0,48,86.0,36.0370436319
553,1273309,Sasaram,IN,24.95,84.01,1600360797,98,69,85.98,9.1043307003
554,2017155,Saskylakh,RU,71.92,114.08,1600360798,1,81,48.29,19.4166069972
555,933102,Sekoma,BW,-24.4,23.88,1600360798,18,16,75.25,20.7587687712
556,2255304,Sémbé,CG,1.65,14.58,1600360798,99,86,76.03,3.0422333544000004
557,2786852,Seneffe,BE,50.53,4.26,1600360798,0,39,68.0,41.0254115586
558,1835848,Seoul,KR,37.57,126.98,1600360799,40,77,68.0,25.3668575286
559,6144312,Sept-Îles,CA,50.2,-66.38,1600360521,20,39,50.0,46.528274832
560,1519385,Sergeevka,KZ,53.88,67.42,1600360799,93,90,46.56,24.4273442868
561,2121385,Severo-Kuril'sk,RU,50.68,156.12,1600360799,100,87,54.84,18.007337134500002
562,2121373,Seymchan,RU,62.88,152.43,1600360799,65,94,32.45,7.9634931924000005
563,328716,Shakiso,ET,5.75,38.92,1600360799,66,81,62.35,2.2593056529
564,5838199,Sheridan,US,44.83,-106.92,1600360800,1,67,66.99,6.6660701442
565,1852357,Shimoda,JP,34.67,138.95,1600360800,74,95,72.0,34.3369720515
566,1847947,Shingū,JP,33.73,135.98,1600360748,91,92,75.25,16.217788102500002
567,608270,Shubarshi,KZ,48.59,57.19,1600360800,65,69,52.16,20.3113815132
568,6148373,Sioux Lookout,CA,50.1,-91.92,1600360801,40,42,46.4,31.0263063423
569,3419842,Sisimiut,GL,66.94,-53.67,1600360801,79,71,39.07,3.1988188947
570,3139597,Sistranda,NO,63.73,8.83,1600360801,75,62,51.8,18.007337134500002
571,5557293,Sitka,US,57.05,-135.33,1600360801,40,87,48.2,3.1540801688999998
572,6149374,Slave Lake,CA,55.28,-114.77,1600360801,1,81,50.0,13.018969207800001
573,3085450,Słupsk,PL,54.46,17.03,1600360802,15,61,52.34,15.5690765784
574,525426,Sobolevo,RU,54.43,31.9,1600360802,59,85,47.68,30.377594818200002
575,149812,Sokoni,TZ,-6.43,39.55,1600360802,0,79,77.27,32.3237293905
576,2134814,Sola,VU,-13.88,167.55,1600360802,74,83,80.15,49.7494630896
577,491025,Soligalich,RU,59.08,42.29,1600360802,100,91,55.4,25.6800286092
578,2016307,Solnechnyy,RU,50.72,136.63,1600360803,100,92,49.6,14.8532569656
579,3982837,Sonoita,MX,31.85,-112.83,1600360803,0,9,99.99,12.9518611191
580,1626542,Sorong,ID,-0.88,131.25,1600360696,88,87,77.14,14.5177165221
581,933995,Souillac,MU,-20.52,57.52,1600360803,75,68,71.6,31.0263063423
582,2121052,Sovetskaya Gavan',RU,48.97,140.29,1600360803,43,96,56.97,4.2949176768
583,1491197,Spassk,RU,52.75,87.75,1600360804,100,81,53.64,11.2517895387
584,1626493,Srandakan,ID,-7.94,110.25,1600360550,27,84,75.34,5.9949892572
585,4787534,Sterling,US,39.01,-77.43,1600360804,75,73,72.0,8.5674659907
586,3650956,Sucúa,EC,-2.47,-78.17,1600360804,20,57,80.6,10.513600563
587,1164306,Surab,PK,28.49,66.26,1600360804,0,22,70.11,15.0098425059
588,137268,Sūsangerd,IR,31.56,48.18,1600360805,0,33,100.4,10.513600563
589,2961299,Swinford,IE,53.95,-8.95,1600360805,77,68,64.99,6.71080887
590,2281120,Tabou,CI,4.42,-7.35,1600360805,98,86,75.06,25.612920520499998
591,2138285,Tadine,NC,-21.55,167.88,1600360805,11,90,68.59,19.125805279500003
592,2034615,Tahe,CN,52.33,124.73,1600360805,100,94,47.16,19.6179312633
593,2034599,Tailai,CN,46.38,123.4,1600360806,45,93,59.0,12.5044738611
594,1490256,Talnakh,RU,69.49,88.4,1600360806,99,71,51.8,25.0089477222
595,3870243,Taltal,CL,-25.4,-70.48,1600360802,20,51,64.53,14.719040788200001
596,1282714,Tānsen,NP,27.87,83.55,1600360806,100,100,65.55,7.4042591199
597,3424607,Tasiilaq,GL,65.61,-37.64,1600360774,5,80,41.0,18.007337134500002
598,1293960,Taunggyi,MM,20.78,97.03,1600360806,100,100,65.55,7.158196128
599,4033557,Tautira,PF,-17.73,-149.15,1600360807,20,83,73.4,5.010737289600001
600,1734199,Tawao,MY,4.25,117.89,1600360807,20,94,77.0,8.9030064342
601,1489853,Tazovsky,RU,67.47,78.7,1600360807,56,87,45.79,20.6692913196
602,2181625,Te Anau,NZ,-45.42,167.72,1600360807,24,91,33.49,9.1490694261
603,3165828,Tempio Pausania,IT,40.9,9.1,1600360808,12,40,86.0,25.5234430689
604,3515956,Tenosique,MX,17.48,-91.43,1600360808,88,63,88.92,4.7646742977
605,738803,Terme,TR,41.21,36.97,1600360808,75,78,73.4,7.5161059344
606,1254709,Tezu,IN,27.92,96.17,1600360808,86,81,76.08,6.1515747975
607,3573374,The Valley,AI,18.22,-63.06,1600360808,20,58,89.6,38.5200429138
608,1337610,Thinadhoo,MV,0.53,72.93,1600360809,38,77,83.08,26.3734788591
609,6165406,Thompson,CA,55.74,-97.86,1600360809,20,55,37.4,20.5127057793
610,2015306,Tiksi,RU,71.69,128.87,1600360809,100,77,47.52,37.0212955995
611,3667070,Timbiquí,CO,2.77,-77.67,1600360809,47,85,80.47,20.065318521300004
612,2527087,Tiznit Province,MA,29.58,-9.5,1600360809,100,37,83.14,4.8094130235
613,1850345,Toba,JP,34.48,136.85,1600360810,40,88,82.0,7.5161059344
614,6167817,Torbay,CA,47.67,-52.73,1600360522,75,59,66.99,79.5678238353
615,2972270,Tourlaville,FR,49.64,-1.57,1600360810,0,72,63.0,43.530780203400006
616,3386213,Touros,BR,-5.2,-35.46,1600360810,40,58,84.2,36.0370436319
617,481548,Troitsko-Pechorsk,RU,62.71,56.2,1600360810,100,79,39.06,12.168933417600002
618,1489138,Tselinnoye,RU,53.08,85.67,1600360811,100,85,55.17,33.0842877291
619,2180815,Tuatapere,NZ,-46.13,167.68,1600360811,43,84,39.99,20.110057247100002
620,2273435,Tubmanburg,LR,6.87,-10.82,1600360811,86,90,77.67,13.1531853852
621,3385980,Tucumã,BR,-0.18,-50.05,1600360811,2,58,89.8,18.7678954731
622,6170031,Tuktoyaktuk,CA,69.45,-133.04,1600360771,75,100,39.2,15.5019684897
623,1254046,Tura,IN,25.52,90.22,1600360812,100,94,74.79,8.2095561843
624,101312,Turaif,SA,31.67,38.66,1600360812,40,13,98.6,10.513600563
625,2014743,Tygda,RU,53.12,126.33,1600360812,100,92,48.31,24.9642089964
626,1488780,Tyukalinsk,RU,55.87,72.2,1600360812,67,79,45.99,13.2202934739
627,2014624,Udachny,RU,66.42,112.4,1600360813,1,66,48.2,15.0098425059
628,1253952,Udupi,IN,13.35,74.75,1600360813,90,100,75.2,7.9634931924000005
629,1337619,Ugoofaaru,MV,5.67,73.0,1600360813,1,77,82.67,24.8747315448
630,2145554,Ulladulla,AU,-35.35,150.47,1600360813,90,100,55.0,18.007337134500002
631,479071,Umba,RU,66.69,34.34,1600360813,9,70,43.84,18.1639226748
632,3625710,Upata,VE,8.01,-62.4,1600360814,33,57,91.0,11.2070508129
633,3418910,Upernavik,GL,72.79,-56.15,1600360814,100,84,34.72,7.7621689263
634,1488429,Uray,RU,60.12,64.78,1600360814,96,76,49.33,25.4115962544
635,3666409,Uribia,CO,11.71,-72.27,1600360814,59,45,93.02,34.4264495031
636,3833367,Ushuaia,AR,-54.8,-68.3,1600360765,75,64,35.6,85.0706871087
637,478050,Ust'-Kulom,RU,61.69,53.69,1600360814,99,73,41.54,4.0488546849
638,2120048,Ust-Nera,RU,64.57,143.2,1600360815,7,85,34.25,5.4133858218
639,2120047,Ust'-Omchug,RU,61.15,149.63,1600360815,0,95,31.46,3.355404435
640,4738723,Uvalde,US,29.37,-99.77,1600360815,40,58,88.0,20.5127057793
641,4032243,Vaini,TO,-21.2,-175.2,1600360815,75,88,69.8,25.5234430689
642,663730,Valea Ierii,RO,46.65,23.35,1600360815,42,50,77.0,15.5019684897
643,3980614,Valle de Juárez,MX,19.93,-102.93,1600360816,60,86,69.17,1.4987473143
644,3868633,Vallenar,CL,-28.57,-70.76,1600360816,0,14,86.09,17.5599498765
645,2084442,Vanimo,PG,-2.67,141.3,1600360816,84,86,77.34,9.864889038900001
646,2137773,Vao,NC,-22.67,167.48,1600360816,0,85,70.52,27.8274874476
647,777019,Vardø,NO,70.37,31.11,1600360816,65,65,46.4,13.018969207800001
648,2013639,Verkhnevilyuysk,RU,63.45,120.32,1600360817,0,89,39.18,3.5567287011000004
649,2013465,Verkhoyansk,RU,67.54,133.38,1600360817,16,77,40.64,6.8450250474
650,3412093,Vestmannaeyjar,IS,63.44,-20.27,1600360817,75,81,50.0,41.0254115586
651,1819729,Hong Kong,HK,22.29,114.16,1600360709,83,89,82.0,51.4942733958
652,879431,Victoria Falls,ZW,-17.92,25.84,1600360817,85,23,82.4,3.1093414431
653,2013406,Vidim,RU,56.41,103.11,1600360817,49,77,44.8,8.3661417246
654,7117100,Vila,PT,42.03,-8.16,1600360818,62,78,64.0,2.2593056529
655,3372472,Vila Franca do Campo,PT,37.72,-25.43,1600360818,20,56,71.6,25.5234430689
656,3445026,Vila Velha,BR,-20.33,-40.29,1600360542,20,54,84.2,43.530780203400006
657,2137748,Voh,NC,-20.97,164.7,1600360818,41,86,64.69,7.3595203941000005
658,472231,Volzhskiy,RU,48.79,44.78,1600360818,68,36,60.8,25.0089477222
659,2013279,Vostok,RU,46.49,135.88,1600360819,20,100,48.24,8.9030064342
660,471308,Voyvozh,RU,62.89,54.96,1600360819,100,79,38.77,8.2990336359
661,2013258,Vrangel',RU,42.73,133.08,1600360819,93,92,59.92,13.466356465799999
662,2013225,Rechka Vydrino,RU,51.48,104.85,1600360819,14,71,50.79,7.113457402200001
663,2206874,Waipawa,NZ,-41.41,175.52,1600360819,99,93,55.99,51.5390121216
664,1791779,Wanning,CN,18.8,110.4,1600360820,100,88,82.47,39.683249784599994
665,1224061,Wattegama,LK,6.8,81.48,1600360820,40,94,80.6,23.0180744241
666,2179537,Wellington,NZ,-41.29,174.78,1600360637,100,93,51.8,51.5390121216
667,1791388,Wenzhou,CN,28.0,120.67,1600360691,92,80,78.01,8.0977093698
668,3580477,West Bay,KY,19.37,-81.42,1600360820,40,84,88.0,18.007337134500002
669,5710035,West Wendover,US,40.74,-114.07,1600360820,1,22,66.2,7.5161059344
670,4845585,Westport,US,41.14,-73.36,1600360821,1,68,73.99,23.0180744241
671,6179652,Weyburn,CA,49.67,-103.85,1600360672,2,41,57.0,29.08017177
672,2208330,Whakatane,NZ,-37.96,176.99,1600360821,99,85,55.99,6.71080887
673,6180550,Whitehorse,CA,60.72,-135.05,1600360821,75,55,50.0,41.0254115586
674,2154826,Wonthaggi,AU,-38.6,145.59,1600360821,83,89,51.01,33.6658911645
675,1789647,Xichang,CN,27.9,102.26,1600360821,99,73,61.48,6.509484603900001
676,326036,Yabēlo,ET,4.88,38.08,1600360778,54,51,69.71,19.8192555294
677,2110560,Yamada,JP,39.47,141.95,1600360822,99,85,71.02,14.4058697076
678,1252795,Yanam,IN,16.73,82.22,1600360822,40,83,84.2,13.018969207800001
679,203717,Yangambi,CD,0.81,24.43,1600360822,41,79,76.78,8.4108804504
680,3650053,Yantzaza,EC,-3.83,-78.76,1600360666,40,47,80.6,5.010737289600001
681,6185377,Yellowknife,CA,62.46,-114.35,1600360597,20,75,45.0,15.5019684897
682,2142316,Yeppoon,AU,-23.13,150.73,1600360823,2,93,64.4,13.018969207800001
683,2012956,Yerbogachën,RU,61.28,108.01,1600360823,0,74,44.85,5.8607730798
684,1786764,Yichang,CN,30.71,111.28,1600360823,30,67,60.89,8.2990336359
685,1919445,Yidu,CN,24.16,115.13,1600360823,63,94,75.13,6.9121331361
686,1786676,Yima,CN,34.74,111.88,1600360823,0,99,71.01,4.0935934107000005
687,2662149,Ystad,SE,55.43,13.82,1600360823,27,47,57.2,28.5209376975
688,1786110,Yuancheng,CN,36.65,107.79,1600360824,0,39,57.85,5.7489262653
689,6355222,Yulara,AU,-25.24,130.99,1600360824,90,77,62.6,28.5209376975
690,1528998,Yumen,CN,40.28,97.2,1600360824,0,30,57.38,21.2732641179
691,464790,Zapolyarnyy,RU,69.42,30.81,1600360824,62,65,44.6,25.5234430689
692,2012530,Zhigansk,RU,66.77,123.37,1600360825,0,79,39.33,4.2949176768
693,3191648,Zlobin,HR,45.29,14.65,1600360825,20,47,80.6,46.528274832
694,2119283,Zyryanka,RU,65.75,150.85,1600360825,92,90,38.61,14.8532569656
